,,*78
$IIGLL,5032.692,N,00359.637,W,182002,A,A*4F
$ECGLL,5032.692,N,00359.637,W,182003,A,A*48
$ECRMC,182003,A,5032.692,N,00359.637,W,000.0,294.8,170814,002.3,W,A*0B
$ECGGA,182004,5032.692,N,00359.637,W,1,03,003.1,412.4,M,050.2,M,,*7F
$ECGLL,5032.692,N,00359.637,W,182004,A,A*4F
$ECRMC,182004,A,5032.692,N,00359.637,W,000.0,294.8,170814,002.3,W,A*0C
$ECVTG,294.8,T,297.1,M,000.0,N,000.0,K,A*38
$IIRMC,182003,A,5032.692,N,00359.637,W,00.0,294,170814,02,W,A*06
$ECGSA,A,2,,32,,19,,,14,,,,,,003.2,003.0,001.0*2D
$ECGSV,3,1,11,11,84,134,00,32,72,170,58,01,70,291,28,19,36,147,41*63
$IIGLL,5032.692,N,00359.637,W,182003,A,A*4E
$IIRMC,182004,A,5032.692,N,00359.637,W,00.0,294,170814,02,W,A*01
$ECGSV,3,2,11,28,33,281,00,20,34,222,00,14,29,061,35,04,21,276,00*64
$IIGLL,5032.692,N,00359.637,W,182004,A,A*49
$ECGSV,3,3,11,17,15,312,00,22,12,053,00,27,07,144,00*5C
$IIRMC,182004,A,5032.692,N,00359.637,W,00.0,294,170814,02,W,A*01
$ECGGA,182006,5032.692,N,00359.638,W,1,03,003.0,412.4,M,050.2,M,,*73
$IIGLL,5032.692,N,00359.637,W,182004,A,A*49
$ECGLL,5032.692,N,00359.638,W,182006,A,A*42
$ECRMC,182006,A,5032.692,N,00359.638,W,000.0,294.8,170814,002.3,W,A*01
$ECVTG,294.8,T,297.1,M,000.0,N,000.0,K,A*38
$IIRMC,182006,A,5032.692,N,00359.638,W,00.0,294,170814,02,W,A*0C
$ECGGA,182007,5032.692,N,00359.638,W,1,03,003.0,412.4,M,050.2,M,,*72
$IIGLL,5032.692,N,00359.638,W,182006,A,A*44
$ECGLL,5032.692,N,00359.638,W,182007,A,A*43
$ECRMC,182007,A,5032.692,N,00359.638,W,000.0,294.8,170814,002.3,W,A*00
$ECVTG,294.8,T,297.1,M,000.0,N,000.0,K,A*38
$IIRMC,182007,A,5032.692,N,00359.638,W,00.0,294,170814,02,W,A*0D
$PRAYA,6,1,,,,15,,0,0,1,,,*45
$ECGGA,182008,5032.692,N,00359.638,W,1,03,003.0,412.4,M,050.2,M,,*7D
$IIGLL,5032.692,N,00359.638,W,182007,A,A*45
$ECGLL,5032.692,N,00359.638,W,182008,A,A*4C
$IIRMC,182008,A,5032.692,N,00359.638,W,00.0,294,170814,02,W,A*02
$ECGGA,182009,5032.692,N,00359.638,W,1,04,003.7,414.0,M,050.2,M,,*7E
$IIGLL,5032.692,N,00359.638,W,182008,A,A*4A
$ECGLL,5032.692,N,00359.638,W,182009,A,A*4D
$ECRMC,182009,A,5032.692,N,00359.638,W,000.0,294.8,170814,002.3,W,A*0E
$ECVTG,294.8,T,297.1,M,000.0,N,000.0,K,A*38
$IIRMC,182009,A,5032.692,N,00359.638,W,00.0,294,170814,02,W,A*03
$ECGSA,A,3,,32,01,19,,,14,,,,,,007.7,003.7,006.7*2B
$IIGLL,5032.692,N,00359.638,W,182009,A,A*4B
$ECGSV,3,1,11,11,84,134,00,32,72,169,58,01,70,291,29,19,36,147,40*6B
$ECGSV,3,2,11,28,33,281,00,20,34,222,00,14,29,061,35,04,21,277,00*65
$ECGSV,3,3,11,17,15,312,00,22,12,053,00,27,07,144,00*5C
$IIRMC,182009,A,5032.692,N,00359.638,W,00.0,294,170814,02,W,A*03
$ECGGA,182011,5032.692,N,00359.638,W,1,04,003.7,414.0,M,050.2,M,,*77
$IIGLL,5032.692,N,00359.638,W,182009,A,A*4B
$ECGLL,5032.692,N,00359.638,W,182011,A,A*44
$ECRMC,182011,A,5032.692,N,00359.638,W,000.0,294.8,170814,002.3,W,A*07
$ECVTG,294.8,T,297.1,M,000.0,N,000.0,K,A*38
$IIRMC,182011,A,5032.692,N,00359.638,W,00.0,294,170814,02,W,A*0A
$ECGGA,182012,5032.692,N,00359.638,W,1,03,003.0,412.7,M,050.2,M,,*75
$IIGLL,5032.692,N,00359.638,W,182011,A,A*42
$ECGLL,5032.692,N,00359.638,W,182012,A,A*47
$ECRMC,182012,A,5032.692,N,00359.638,W,000.0,294.8,170814,002.3,W,A*04
$ECVTG,294.8,T,297.1,M,000.0,N,000.0,K,A*38
$IIRMC,182012,A,5032.692,N,00359.638,W,00.0,294,170814,02,W,A*09
$PRAYA,6,1,,,,15,,0,0,1,,,*45
$IIGLL,5032.692,N,00359.638,W,182012,A,A*41
$ECGGA,182013,5032.692,N,00359.638,W,1,04,003.7,413.9,M,050.2,M,,*7B
$IIRMC,182012,A,5032.692,N,00359.638,W,00.0,294,170814,02,W,A*09
$IIGLL,5032.692,N,00359.638,W,182012,A,A*41
$ECGGA,182014,5032.692,N,00359.638,W,1,04,003.7,413.9,M,050.2,M,,*7C
$ECGLL,5032.692,N,00359.638,W,182014,A,A*41
$ECRMC,182014,A,5032.692,N,00359.638,W,000.0,294.8,170814,002.3,W,A*02
$ECVTG,294.8,T,297.1,M,000.0,N,000.0,K,A*38
$IIRMC,182014,A,5032.692,N,00359.638,W,00.0,294,170814,02,W,A*0F
$IIGLL,5032.692,N,00359.638,W,182014,A,A*47
$ECGSA,A,3,,32,01,19,,,14,,,,,,007.7,003.7,006.7*2B
$ECGSV,3,1,11,11,84,133,00,32,72,169,58,01,70,291,30,19,36,147,40*64
$ECGSV,3,2,11,28,33,281,00,20,34,222,00,14,29,061,35,04,21,277,00*65
$ECGSV,3,3,11,17,15,312,00,22,12,053,00,27,07,144,00*5C
$ECGGA,182015,5032.692,N,00359.638,W,1,04,003.7,413.9,M,050.2,M,,*7D
$ECGLL,5032.692,N,00359.638,W,182015,A,A*40
$ECRMC,182015,A,5032.692,N,00359.638,W,000.0,294.8,170814,002.3,W,A*03
$IIRMC,182014,A,5032.692,N,00359.638,W,00.0,294,170814,02,W,A*0F
$ECVTG,294.8,T,297.1,M,000.0,N,000.0,K,A*38
$IIGLL,5032.692,N,00359.638,W,182014,A,A*47
$ECGGA,182016,5032.692,N,00359.638,W,1,04,003.7,413.8,M,050.2,M,,*7F
$ECGLL,5032.692,N,00359.638,W,182016,A,A*43
$ECRMC,182016,A,5032.692,N,00359.638,W,000.0,294.8,170814,002.3,W,A*00
$ECVTG,294.8,T,297.1,M,000.0,N,000.0,K,A*38
$IIRMC,182016,A,5032.692,N,00359.638,W,00.0,294,170814,02,W,A*0D
$IIGLL,5032.692,N,00359.638,W,182016,A,A*45
$IIRMC,182016,A,5032.692,N,00359.638,W,00.0,294,170814,02,W,A*0D
$IIGLL,5032.692,N,00359.638,W,182016,A,A*45
$PRAYA,6,1,,,,15,,0,0,1,,,*45
$ECGGA,182018,5032.692,N,00359.638,W,1,03,003.0,413.0,M,050.2,M,,*79
$ECGLL,5032.692,N,00359.638,W,182018,A,A*4D
$ECRMC,182018,A,5032.692,N,00359.638,W,000.0,294.8,170814,002.3,W,A*0E
$ECVTG,294.8,T,297.1,M,000.0,N,000.0,K,A*38
$IIRMC,182018,A,5032.692,N,00359.638,W,00.0,294,170814,02,W,A*03
$IIGLL,5032.692,N,00359.638,W,182018,A,A*4B
$ECRMC,182019,A,5032.692,N,00359.638,W,000.0,294.8,170814,002.3,W,A*0F
$IIRMC,182019,A,5032.692,N,00359.638,W,00.0,294,170814,02,W,A*02
$IIGLL,5032.692,N,00359.638,W,182019,A,A*4A
$ECGSA,A,2,,32,,19,,,14,,,,,,003.2,003.0,001.0*2D
$ECGSV,3,1,11,11,84,133,00,32,72,169,58,01,70,291,29,19,36,147,40*6C
$ECGSV,3,2,11,28,33,281,00,20,34,222,00,14,29,061,35,04,21,277,00*65
$ECGSV,3,3,11,17,15,312,00,22,12,053,00,27,07,144,00*5C
$ECGGA,182020,5032.692,N,00359.638,W,1,03,003.0,413.0,M,050.2,M,,*72
$ECGLL,5032.692,N,00359.638,W,182020,A,A*46
$ECRMC,182020,A,5032.692,N,00359.638,W,000.0,294.8,170814,002.3,W,A*05
$IIRMC,182019,A,5032.692,N,00359.638,W,00.0,294,170814,02,W,A*02
$ECVTG,294.8,T,297.1,M,000.0,N,000.0,K,A*38
$IIGLL,5032.692,N,00359.638,W,182019,A,A*4A
$ECGGA,182021,5032.692,N,00359.638,W,1,03,003.0,413.0,M,050.2,M,,*73
$ECGLL,5032.692,N,00359.638,W,182021,A,A*47
$ECVTG,294.8,T,297.1,M,000.0,N,000.0,K,A*38
$IIRMC,182021,A,5032.692,N,00359.638,W,00.0,294,170814,02,W,A*09
$IIGLL,5032.692,N,00359.638,W,182021,A,A*41
$ECRMC,182022,A,5032.692,N,00359.638,W,000.0,294.8,170814,002.3,W,A*07
$IIRMC,182022,A,5032.692,N,00359.638,W,00.0,294,170814,02,W,A*0A
$IIGLL,5032.692,N,00359.638,W,182022,A,A*42
$PRAYA,6,1,,,,15,,0,0,1,,,*45
$ECGGA,182023,5032.692,N,00359.638,W,1,04,003.7,413.3,M,050.2,M,,*72
$ECGLL,5032.692,N,00359.638,W,182023,A,A*45
$ECRMC,182023,A,5032.692,N,00359.638,W,000.0,294.8,170814,002.3,W,A*06
$ECVTG,294.8,T,297.1,M,000.0,N,000.0,K,A*38
$IIRMC,182023,A,5032.692,N,00359.638,W,00.0,294,170814,02,W,A*0B
$IIGLL,5032.692,N,00359.638,W,182023,A,A*43
$ECGGA,182024,5032.692,N,00359.638,W,1,04,003.7,413.3,M,050.2,M,,*75
$ECVTG,294.8,T,297.1,M,000.0,N,000.0,K,A*38
$IIRMC,182023,A,5032.692,N,00359.638,W,00.0,294,170814,02,W,A*0B
$IIGLL,5032.692,N,00359.638,W,182023,A,A*43
$ECGSA,A,2,,32,,19,,,14,,,,,,003.2,003.0,001.0*2D
$ECGSV,3,1,11,11,84,133,00,32,72,169,59,01,70,291,31,19,36,147,39*6A
$ECGSV,3,2,11,28,33,281,00,20,35,222,00,14,29,061,35,04,21,277,00*64
$ECGSV,3,3,11,17,15,312,00,22,12,053,00,27,07,144,00*5C
$ECGGA,182025,5032.692,N,00359.638,W,1,03,003.0,413.0,M,050.2,M,,*77
$ECGLL,5032.692,N,00359.638,W,182025,A,A*43
$IIRMC,182023,A,5032.692,N,00359.638,W,00.0,294,170814,02,W,A*0B
$ECRMC,182025,A,5032.692,N,00359.638,W,000.0,294.8,170814,002.3,W,A*00
$IIGLL,5032.692,N,00359.638,W,182023,A,A*43
$ECVTG,294.8,T,297.1,M,000.0,N,000.0,K,A*38
$IIRMC,182023,A,5032.692,N,00359.638,W,00.0,294,170814,02,W,A*0B
$IIGLL,5032.692,N,00359.638,W,182023,A,A*43
$ECGGA,182027,5032.692,N,00359.638,W,1,04,003.7,413.2,M,050.2,M,,*77
$ECGLL,5032.692,N,00359.638,W,182027,A,A*41
$ECRMC,182027,A,5032.692,N,00359.638,W,000.0,294.8,170814,002.3,W,A*02
$ECVTG,294.8,T,297.1,M,000.0,N,000.0,K,A*38
$IIRMC,182027,A,5032.692,N,00359.638,W,00.0,294,170814,02,W,A*0F
$IIGLL,5032.692,N,00359.638,W,182027,A,A*47
$PRAYA,6,1,,,,15,,0,0,1,,,*45
$IIRMC,182027,A,5032.692,N,00359.638,W,00.0,294,170814,02,W,A*0F
$IIGLL,5032.692,N,00359.638,W,182027,A,A*47
$ECGGA,182029,5032.692,N,00359.638,W,1,04,003.7,413.1,M,050.2,M,,*7A
$ECGLL,5032.692,N,00359.638,W,182029,A,A*4F
$ECRMC,182029,A,5032.692,N,00359.638,W,000.0,294.8,170814,002.3,W,A*0C
$ECVTG,294.8,T,297.1,M,000.0,N,000.0,K,A*38
$IIRMC,182029,A,5032.692,N,00359.638,W,00.0,294,170814,02,W,A*01
$IIGLL,5032.692,N,00359.638,W,182029,A,A*49
$ECGSA,A,3,,32,01,19,,,14,,,,,,007.7,003.7,006.7*2B
$ECGSV,3,1,11,11,84,133,00,32,72,169,59,01,70,291,32,19,36,147,39*69
$ECGSV,3,2,11,28,33,281,00,20,35,222,00,14,29,061,35,04,21,277,00*64
