$IIVWR,087,R,00.0,N,,,,*6E
$IIMWV,087,R,00.0,N,A*1C
$IIVWR,087,R,00.0,N,,,,*6E
$IIMWV,087,R,00.0,N,A*1C
$IIVWR,087,R,00.0,N,,,,*6E
$IIMWV,087,R,00.0,N,A*1C
$IIVWR,087,R,00.0,N,,,,*6E
$IIMWV,087,R,00.0,N,A*1C
$IIVWR,087,R,00.0,N,,,,*6E
$IIMWV,087,R,00.0,N,A*1C
$IIVWR,083,R,00.0,N,,,,*6A
$IIMWV,083,R,00.0,N,A*18
$IIVWR,051,R,00.0,N,,,,*65
$IIMWV,051,R,00.0,N,A*17
$IIVWR,034,R,00.0,N,,,,*66
$IIMWV,034,R,00.0,N,A*14
$IIVWR,029,R,00.0,N,,,,*6A
$IIMWV,029,R,00.0,N,A*18
$IIVWR,081,R,00.0,N,,,,*68
$IIMWV,081,R,00.0,N,A*1A
$IIVWR,029,R,00.0,N,,,,*6A
$IIMWV,029,R,00.0,N,A*18
$IIVWR,120,R,00.0,N,,,,*62
$IIMWV,120,R,00.0,N,A*10
$IIVWR,180,R,03.4,N,,,,*6F
$IIMWV,180,R,03.4,N,A*1D
$IIVWR,158,L,04.2,N,,,,*75
$IIMWV,202,R,04.2,N,A*15
$IIVWR,155,L,03.7,N,,,,*7A
$IIMWV,205,R,03.7,N,A*10
$IIVWR,156,L,03.5,N,,,,*7B
$IIMWV,204,R,03.5,N,A*13
$IIVWR,157,L,03.0,N,,,,*7F
$IIMWV,203,R,03.0,N,A*11
$IIVWR,159,L,01.7,N,,,,*74
$IIMWV,201,R,01.7,N,A*16
$IIVWR,160,L,02.1,N,,,,*7B
$IIMWV,200,R,02.1,N,A*12
$IIVWR,159,L,01.7,N,,,,*74
$IIMWV,201,R,01.7,N,A*16
$IIVWR,155,L,01.1,N,,,,*7E
$IIMWV,205,R,01.1,N,A*14
$IIVWR,152,L,00.4,N,,,,*7D
$IIMWV,208,R,00.4,N,A*1D
$IIVWR,152,L,01.1,N,,,,*79
$IIMWV,208,R,01.1,N,A*19
$IIVWR,150,L,00.8,N,,,,*73
$IIMWV,210,R,00.8,N,A*18
$IIVWR,149,L,00.3,N,,,,*70
$IIMWV,211,R,00.3,N,A*12
$IIVWR,148,L,00.1,N,,,,*73
$IIMWV,212,R,00.1,N,A*13
$IIVWR,148,L,00.0,N,,,,*72
$IIMWV,212,R,00.0,N,A*12
$IIVWR,154,L,00.0,N,,,,*7F
$IIMWV,206,R,00.0,N,A*17
$IIVWR,156,L,00.0,N,,,,*7D
$IIMWV,204,R,00.0,N,A*15
$IIVWR,151,L,00.0,N,,,,*7A
$IIMWV,209,R,00.0,N,A*18
$IIVWR,147,L,00.0,N,,,,*7D
$IIMWV,213,R,00.0,N,A*13
$IIVWR,152,L,00.0,N,,,,*79
$IIMWV,208,R,00.0,N,A*19
$IIVWR,155,L,00.0,N,,,,*7E
$IIMWV,205,R,00.0,N,A*14
$IIVWR,150,L,00.0,N,,,,*7B
$IIMWV,210,R,00.0,N,A*10
$IIVWR,142,L,00.0,N,,,,*78
$IIMWV,218,R,00.0,N,A*18
$IIVWR,158,L,00.0,N,,,,*73
$IIMWV,202,R,00.0,N,A*13
$IIVWR,169,R,00.0,N,,,,*6F
$IIMWV,169,R,00.0,N,A*1D
$IIVWR,175,R,00.5,N,,,,*67
$IIMWV,175,R,00.5,N,A*15
$IIVWR,147,L,00.7,N,,,,*7A
$IIMWV,213,R,00.7,N,A*14
$IIVWR,130,L,01.0,N,,,,*7C
$IIMWV,230,R,01.0,N,A*13
$IIVWR,148,L,00.9,N,,,,*7B
$IIMWV,212,R,00.9,N,A*1B
$IIVWR,171,L,01.1,N,,,,*78
$IIMWV,189,R,01.1,N,A*13
$IIVWR,174,R,01.0,N,,,,*62
$IIMWV,174,R,01.0,N,A*10
$IIVWR,167,R,01.1,N,,,,*61
$IIMWV,167,R,01.1,N,A*13
$IIVWR,159,R,01.1,N,,,,*6C
$IIMWV,159,R,01.1,N,A*1E
$IIVWR,158,R,01.1,N,,,,*6D
$IIMWV,158,R,01.1,N,A*1F
$IIVWR,157,R,01.1,N,,,,*62
$IIMWV,157,R,01.1,N,A*10
$IIVWR,155,R,01.2,N,,,,*63
$IIMWV,155,R,01.2,N,A*11
$IIVWR,153,R,00.7,N,,,,*61
$IIMWV,153,R,00.7,N,A*13
$IIVWR,152,R,00.8,N,,,,*6F
$IIMWV,152,R,00.8,N,A*1D
$IIVWR,147,R,00.4,N,,,,*67
$IIMWV,147,R,00.4,N,A*15
$IIVWR,145,R,00.2,N,,,,*63
$IIMWV,145,R,00.2,N,A*11
$IIVWR,147,R,00.1,N,,,,*62
$IIMWV,147,R,00.1,N,A*10
$IIVWR,147,R,00.1,N,,,,*62
$IIMWV,147,R,00.1,N,A*10
$IIVWR,148,R,00.0,N,,,,*6C
$IIMWV,148,R,00.0,N,A*1E
$IIVWR,146,R,00.0,N,,,,*62
$IIMWV,146,R,00.0,N,A*10
$IIVWR,145,R,00.0,N,,,,*61
$IIMWV,145,R,00.0,N,A*13
$IIVWR,145,R,00.0,N,,,,*61
$IIMWV,145,R,00.0,N,A*13
$IIVWR,145,R,00.0,N,,,,*61
$IIMWV,145,R,00.0,N,A*13
$IIVWR,145,R,00.0,N,,,,*61
$IIMWV,145,R,00.0,N,A*13
$IIVWR,145,R,00.0,N,,,,*61
$IIMWV,145,R,00.0,N,A*13
$IIVWR,145,R,00.0,N,,,,*61
$IIMWV,145,R,00.0,N,A*13
$IIVWR,146,R,00.0,N,,,,*62
$IIMWV,146,R,00.0,N,A*10
$IIVWR,146,R,00.0,N,,,,*62
$IIMWV,146,R,00.0,N,A*10
$IIVWR,146,R,00.0,N,,,,*62
$IIMWV,146,R,00.0,N,A*10
$IIVWR,146,R,00.0,N,,,,*62
$IIMWV,146,R,00.0,N,A*10
$IIVWR,145,R,00.0,N,,,,*61
$IIMWV,145,R,00.0,N,A*13
$IIVWR,145,R,00.0,N,,,,*61
$IIMWV,145,R,00.0,N,A*13
$IIVWR,146,R,00.0,N,,,,*62
$IIMWV,146,R,00.0,N,A*10
$IIVWR,146,R,00.0,N,,,,*62
$IIMWV,146,R,00.0,N,A*10
$IIVWR,146,R,00.0,N,,,,*62
$IIMWV,146,R,00.0,N,A*10
$IIVWR,147,R,00.0,N,,,,*63
$IIMWV,147,R,00.0,N,A*11
$IIVWR,147,R,00.0,N,,,,*63
$IIMWV,147,R,00.0,N,A*11
$IIVWR,147,R,00.0,N,,,,*63
$IIMWV,147,R,00.0,N,A*11
$IIVWR,147,R,00.0,N,,,,*63
$IIMWV,147,R,00.0,N,A*11
$IIVWR,147,R,00.0,N,,,,*63
$IIMWV,147,R,00.0,N,A*11
$IIVWR,147,R,00.0,N,,,,*63
$IIMWV,147,R,00.0,N,A*11
$IIVWR,147,R,00.0,N,,,,*63
$IIMWV,147,R,00.0,N,A*11
$IIVWR,147,R,00.0,N,,,,*63
$IIMWV,147,R,00.0,N,A*11
$IIVWR,147,R,00.0,N,,,,*63
$IIMWV,147,R,00.0,N,A*11
$IIVWR,138,R,00.8,N,,,,*63
$IIMWV,138,R,00.8,N,A*11
$IIVWR,142,R,00.8,N,,,,*6E
$IIMWV,142,R,00.8,N,A*1C
$IIVWR,145,R,01.0,N,,,,*60
$IIMWV,145,R,01.0,N,A*12
$IIVWR,146,R,00.9,N,,,,*6B
$IIMWV,146,R,00.9,N,A*19
$IIVWR,145,R,01.6,N,,,,*66
$IIMWV,145,R,01.6,N,A*14
$IIVWR,148,R,01.3,N,,,,*6E
$IIMWV,148,R,01.3,N,A*1C
$IIVWR,149,R,01.1,N,,,,*6D
$IIMWV,149,R,01.1,N,A*1F
$IIVWR,148,R,01.1,N,,,,*6C
$IIMWV,148,R,01.1,N,A*1E
$IIVWR,144,R,01.0,N,,,,*61
$IIMWV,144,R,01.0,N,A*13
$IIVWR,133,R,01.1,N,,,,*60
$IIMWV,133,R,01.1,N,A*12
$IIVWR,120,R,01.1,N,,,,*62
$IIMWV,120,R,01.1,N,A*10
$IIVWR,107,R,00.6,N,,,,*61
$IIMWV,107,R,00.6,N,A*13
$IIVWR,085,R,00.4,N,,,,*68
$IIMWV,085,R,00.4,N,A*1A
$IIVWR,071,R,00.2,N,,,,*65
$IIMWV,071,R,00.2,N,A*17
$IIVWR,063,R,00.1,N,,,,*65
$IIMWV,063,R,00.1,N,A*17
$IIVWR,060,R,00.1,N,,,,*66
$IIMWV,060,R,00.1,N,A*14
$IIVWR,058,R,00.0,N,,,,*6C
$IIMWV,058,R,00.0,N,A*1E
$IIVWR,057,R,00.0,N,,,,*63
$IIMWV,057,R,00.0,N,A*11
$IIVWR,056,R,00.0,N,,,,*62
$IIMWV,056,R,00.0,N,A*10
$IIVWR,056,R,00.0,N,,,,*62
$IIMWV,056,R,00.0,N,A*10
$IIVWR,056,R,00.0,N,,,,*62
$IIMWV,056,R,00.0,N,A*10
$IIVWR,056,R,00.0,N,,,,*62
$IIMWV,056,R,00.0,N,A*10
$IIVWR,055,R,00.0,N,,,,*61
$IIMWV,055,R,00.0,N,A*13
$IIVWR,055,R,00.0,N,,,,*61
$IIMWV,055,R,00.0,N,A*13
$IIVWR,055,R,00.0,N,,,,*61
$IIMWV,055,R,00.0,N,A*13
$IIVWR,055,R,00.0,N,,,,*61
$IIMWV,055,R,00.0,N,A*13
$IIVWR,051,R,00.0,N,,,,*65
$IIMWV,051,R,00.0,N,A*17
$IIVWR,061,R,00.0,N,,,,*66
$IIMWV,061,R,00.0,N,A*14
$IIVWR,063,R,00.0,N,,,,*64
$IIMWV,063,R,00.0,N,A*16
$IIVWR,019,R,00.0,N,,,,*69
$IIMWV,019,R,00.0,N,A*1B
$IIVWR,005,L,00.0,N,,,,*7A
$IIMWV,355,R,00.0,N,A*10
$IIVWR,011,L,00.0,N,,,,*7F
$IIMWV,349,R,00.0,N,A*1D
$IIVWR,010,L,00.0,N,,,,*7E
$IIMWV,350,R,00.0,N,A*15
$IIVWR,009,L,00.0,N,,,,*76
$IIMWV,351,R,00.0,N,A*14
$IIVWR,003,L,00.0,N,,,,*7C
$IIMWV,357,R,00.0,N,A*12
$IIVWR,012,R,00.0,N,,,,*62
$IIMWV,012,R,00.0,N,A*10
$IIVWR,034,R,00.0,N,,,,*66
$IIMWV,034,R,00.0,N,A*14
$IIVWR,044,R,00.0,N,,,,*61
$IIMWV,044,R,00.0,N,A*13
$IIVWR,042,R,00.0,N,,,,*67
$IIMWV,042,R,00.0,N,A*15
$IIVWR,042,R,00.0,N,,,,*67
$IIMWV,042,R,00.0,N,A*15
$IIVWR,042,R,00.0,N,,,,*67
$IIMWV,042,R,00.0,N,A*15
$IIVWR,042,R,00.0,N,,,,*67
$IIMWV,042,R,00.0,N,A*15
$IIVWR,051,R,00.0,N,,,,*65
$IIMWV,051,R,00.0,N,A*17
$IIVWR,067,R,00.0,N,,,,*60
$IIMWV,067,R,00.0,N,A*12
$IIVWR,077,R,00.0,N,,,,*61
$IIMWV,077,R,00.0,N,A*13
$IIVWR,083,R,00.0,N,,,,*6A
$IIMWV,083,R,00.0,N,A*18
$IIVWR,086,R,00.0,N,,,,*6F
$IIMWV,086,R,00.0,N,A*1D
$IIVWR,088,R,00.0,N,,,,*61
$IIMWV,088,R,00.0,N,A*13
$IIVWR,088,R,00.0,N,,,,*61
$IIMWV,088,R,00.0,N,A*13
$IIVWR,089,R,00.0,N,,,,*60
$IIMWV,089,R,00.0,N,A*12
$IIVWR,054,R,00.0,N,,,,*60
$IIMWV,054,R,00.0,N,A*12
$IIVWR,027,R,00.0,N,,,,*64
$IIMWV,027,R,00.0,N,A*16
$IIVWR,010,R,00.0,N,,,,*60
$IIMWV,010,R,00.0,N,A*12
$IIVWR,002,R,00.0,N,,,,*63
$IIMWV,002,R,00.0,N,A*11
$IIVWR,002,L,00.0,N,,,,*7D
$IIMWV,358,R,00.0,N,A*1D
$IIVWR,003,L,00.0,N,,,,*7C
$IIMWV,357,R,00.0,N,A*12
$IIVWR,004,L,00.0,N,,,,*7B
$IIMWV,356,R,00.0,N,A*13
$IIVWR,005,L,00.0,N,,,,*7A
$IIMWV,355,R,00.0,N,A*10
$IIVWR,005,L,00.0,N,,,,*7A
$IIMWV,355,R,00.0,N,A*10
$IIVWR,006,L,00.0,N,,,,*79
$IIMWV,354,R,00.0,N,A*11
$IIVWR,006,L,00.0,N,,,,*79
$IIMWV,354,R,00.0,N,A*11
$IIVWR,007,L,00.0,N,,,,*78
$IIMWV,353,R,00.0,N,A*16
$IIVWR,011,R,00.0,N,,,,*61
$IIMWV,011,R,00.0,N,A*13
$IIVWR,063,R,00.0,N,,,,*64
$IIMWV,063,R,00.0,N,A*16
$IIVWR,079,R,00.0,N,,,,*6F
$IIMWV,079,R,00.0,N,A*1D
$IIVWR,084,R,00.0,N,,,,*6D
$IIMWV,084,R,00.0,N,A*1F
$IIVWR,086,R,00.0,N,,,,*6F
$IIMWV,086,R,00.0,N,A*1D
$IIVWR,087,R,00.0,N,,,,*6E
$IIMWV,087,R,00.0,N,A*1C
$IIVWR,038,R,00.0,N,,,,*6A
$IIMWV,038,R,00.0,N,A*18
$IIVWR,009,R,00.0,N,,,,*68
$IIMWV,009,R,00.0,N,A*1A
$IIVWR,000,R,00.0,N,,,,*61
$IIMWV,000,R,00.0,N,A*13
$IIVWR,006,L,00.0,N,,,,*79
$IIMWV,354,R,00.0,N,A*11
$IIVWR,002,L,00.0,N,,,,*7D
$IIMWV,358,R,00.0,N,A*1D
$IIVWR,003,L,00.0,N,,,,*7C
$IIMWV,357,R,00.0,N,A*12
$IIVWR,007,L,00.0,N,,,,*78
$IIMWV,353,R,00.0,N,A*16
$IIVWR,008,L,00.0,N,,,,*77
$IIMWV,352,R,00.0,N,A*17
$IIVWR,010,L,00.0,N,,,,*7E
$IIMWV,350,R,00.0,N,A*15
$IIVWR,011,L,00.0,N,,,,*7F
$IIMWV,349,R,00.0,N,A*1D
$IIVWR,013,L,00.0,N,,,,*7D
$IIMWV,347,R,00.0,N,A*13
$IIVWR,005,R,00.0,N,,,,*64
$IIMWV,005,R,00.0,N,A*16
$IIVWR,055,R,00.0,N,,,,*61
$IIMWV,055,R,00.0,N,A*13
$IIVWR,069,R,00.0,N,,,,*6E
$IIMWV,069,R,00.0,N,A*1C
$IIVWR,050,R,00.0,N,,,,*64
$IIMWV,050,R,00.0,N,A*16
$IIVWR,027,R,00.0,N,,,,*64
$IIMWV,027,R,00.0,N,A*16
$IIVWR,028,R,00.0,N,,,,*6B
$IIMWV,028,R,00.0,N,A*19
$IIVWR,011,R,01.1,N,,,,*61
$IIMWV,011,R,01.1,N,A*13
$IIVWR,046,R,01.0,N,,,,*62
$IIMWV,046,R,01.0,N,A*10
$IIVWR,062,R,00.5,N,,,,*60
$IIMWV,062,R,00.5,N,A*12
$IIVWR,068,R,00.2,N,,,,*6D
$IIMWV,068,R,00.2,N,A*1F
$IIVWR,071,R,00.1,N,,,,*66
$IIMWV,071,R,00.1,N,A*14
$IIVWR,073,R,00.1,N,,,,*64
$IIMWV,073,R,00.1,N,A*16
$IIVWR,074,R,00.0,N,,,,*62
$IIMWV,074,R,00.0,N,A*10
$IIVWR,074,R,00.0,N,,,,*62
$IIMWV,074,R,00.0,N,A*10
$IIVWR,074,R,00.0,N,,,,*62
$IIMWV,074,R,00.0,N,A*10
$IIVWR,075,R,00.0,N,,,,*63
$IIMWV,075,R,00.0,N,A*11
$IIVWR,075,R,00.0,N,,,,*63
$IIMWV,075,R,00.0,N,A*11
$IIVWR,075,R,00.0,N,,,,*63
$IIMWV,075,R,00.0,N,A*11
$IIVWR,075,R,00.0,N,,,,*63
$IIMWV,075,R,00.0,N,A*11
$IIVWR,075,R,00.0,N,,,,*63
$IIMWV,075,R,00.0,N,A*11
$IIVWR,075,R,00.0,N,,,,*63
$IIMWV,075,R,00.0,N,A*11
$IIVWR,075,R,00.0,N,,,,*63
$IIMWV,075,R,00.0,N,A*11
$IIVWR,075,R,00.0,N,,,,*63
$IIMWV,075,R,00.0,N,A*11
$IIVWR,075,R,00.0,N,,,,*63
$IIMWV,075,R,00.0,N,A*11
$IIVWR,075,R,00.0,N,,,,*63
$IIMWV,075,R,00.0,N,A*11
$IIVWR,075,R,00.0,N,,,,*63
$IIMWV,075,R,00.0,N,A*11
$IIVWR,075,R,00.0,N,,,,*63
$IIMWV,075,R,00.0,N,A*11
$IIVWR,075,R,00.0,N,,,,*63
$IIMWV,075,R,00.0,N,A*11
$IIVWR,075,R,00.0,N,,,,*63
$IIMWV,075,R,00.0,N,A*11
$IIVWR,075,R,00.0,N,,,,*63
$IIMWV,075,R,00.0,N,A*11
$IIVWR,075,R,00.0,N,,,,*63
$IIMWV,075,R,00.0,N,A*11
$IIVWR,075,R,00.0,N,,,,*63
$IIMWV,075,R,00.0,N,A*11
$IIVWR,075,R,00.0,N,,,,*63
$IIMWV,075,R,00.0,N,A*11
$IIVWR,075,R,00.0,N,,,,*63
$IIMWV,075,R,00.0,N,A*11
$IIVWR,075,R,00.0,N,,,,*63
$IIMWV,075,R,00.0,N,A*11
$IIVWR,075,R,00.0,N,,,,*63
$IIMWV,075,R,00.0,N,A*11
$IIVWR,075,R,00.0,N,,,,*63
$IIMWV,075,R,00.0,N,A*11
$IIVWR,075,R,00.0,N,,,,*63
$IIMWV,075,R,00.0,N,A*11
$IIVWR,075,R,00.0,N,,,,*63
$IIMWV,075,R,00.0,N,A*11
$IIVWR,075,R,00.0,N,,,,*63
$IIMWV,075,R,00.0,N,A*11
$IIVWR,075,R,00.0,N,,,,*63
$IIMWV,075,R,00.0,N,A*11
$IIVWR,075,R,00.0,N,,,,*63
$IIMWV,075,R,00.0,N,A*11
$IIVWR,075,R,00.0,N,,,,*63
$IIMWV,075,R,00.0,N,A*11
$IIVWR,075,R,00.0,N,,,,*63
$IIMWV,075,R,00.0,N,A*11
$IIVWR,075,R,00.0,N,,,,*63
$IIMWV,075,R,00.0,N,A*11
$IIVWR,075,R,00.0,N,,,,*63
$IIMWV,075,R,00.0,N,A*11
$IIVWR,075,R,00.0,N,,,,*63
$IIMWV,075,R,00.0,N,A*11
$IIVWR,075,R,00.0,N,,,,*63
$IIMWV,075,R,00.0,N,A*11
$IIVWR,075,R,00.0,N,,,,*63
$IIMWV,075,R,00.0,N,A*11
$IIVWR,075,R,00.0,N,,,,*63
$IIMWV,075,R,00.0,N,A*11
$IIVWR,075,R,00.0,N,,,,*63
$IIMWV,075,R,00.0,N,A*11
$IIVWR,075,R,00.0,N,,,,*63
$IIMWV,075,R,00.0,N,A*11
$IIVWR,075,R,00.0,N,,,,*63
$IIMWV,075,R,00.0,N,A*11
$IIVWR,075,R,00.0,N,,,,*63
$IIMWV,075,R,00.0,N,A*11
$IIVWR,075,R,00.0,N,,,,*63
$IIMWV,075,R,00.0,N,A*11
$IIVWR,075,R,00.0,N,,,,*63
$IIMWV,075,R,00.0,N,A*11
$IIVWR,075,R,00.0,N,,,,*63
$IIMWV,075,R,00.0,N,A*11
$IIVWR,075,R,00.0,N,,,,*63
$IIMWV,075,R,00.0,N,A*11
$IIVWR,075,R,00.0,N,,,,*63
$IIMWV,075,R,00.0,N,A*11
$IIVWR,075,R,00.0,N,,,,*63
$IIMWV,075,R,00.0,N,A*11
$IIVWR,075,R,00.0,N,,,,*63
$IIMWV,075,R,00.0,N,A*11
$IIVWR,075,R,00.0,N,,,,*63
$IIMWV,075,R,00.0,N,A*11
$IIVWR,075,R,00.0,N,,,,*63
$IIMWV,075,R,00.0,N,A*11
$IIVWR,075,R,00.0,N,,,,*63
$IIMWV,075,R,00.0,N,A*11
$IIVWR,075,R,00.0,N,,,,*63
$IIMWV,075,R,00.0,N,A*11
$IIVWR,075,R,00.0,N,,,,*63
$IIMWV,075,R,00.0,N,A*11
$IIVWR,075,R,00.0,N,,,,*63
$IIMWV,075,R,00.0,N,A*11
$IIVWR,075,R,00.0,N,,,,*63
$IIMWV,075,R,00.0,N,A*11
$IIVWR,075,R,00.0,N,,,,*63
$IIMWV,075,R,00.0,N,A*11
$IIVWR,075,R,00.0,N,,,,*63
$IIMWV,075,R,00.0,N,A*11
$IIVWR,075,R,00.0,N,,,,*63
$IIMWV,075,R,00.0,N,A*11
$IIVWR,075,R,00.0,N,,,,*63
$IIMWV,075,R,00.0,N,A*11
$IIVWR,075,R,00.0,N,,,,*63
$IIMWV,075,R,00.0,N,A*11
$IIVWR,075,R,00.0,N,,,,*63
$IIMWV,075,R,00.0,N,A*11
$IIVWR,075,R,00.0,N,,,,*63
$IIMWV,075,R,00.0,N,A*11
$IIVWR,075,R,00.0,N,,,,*63
$IIMWV,075,R,00.0,N,A*11
$IIVWR,075,R,00.0,N,,,,*63
$IIMWV,075,R,00.0,N,A*11
$IIVWR,075,R,00.0,N,,,,*63
$IIMWV,075,R,00.0,N,A*11
$IIVWR,075,R,00.0,N,,,,*63
$IIMWV,075,R,00.0,N,A*11
$IIVWR,075,R,00.0,N,,,,*63
$IIMWV,075,R,00.0,N,A*11
$IIVWR,075,R,00.0,N,,,,*63
$IIMWV,075,R,00.0,N,A*11
$IIVWR,075,R,00.0,N,,,,*63
$IIMWV,075,R,00.0,N,A*11
$IIVWR,075,R,00.0,N,,,,*63
$IIMWV,075,R,00.0,N,A*11
$IIVWR,075,R,00.0,N,,,,*63
$IIMWV,075,R,00.0,N,A*11
$IIVWR,075,R,00.0,N,,,,*63
$IIMWV,075,R,00.0,N,A*11
$IIVWR,075,R,00.0,N,,,,*63
$IIMWV,075,R,00.0,N,A*11
$IIVWR,075,R,00.0,N,,,,*63
$IIMWV,075,R,00.0,N,A*11
$IIVWR,075,R,00.0,N,,,,*63
$IIMWV,075,R,00.0,N,A*11
$IIVWR,075,R,00.0,N,,,,*63
$IIMWV,075,R,00.0,N,A*11
$IIVWR,075,R,00.0,N,,,,*63
$IIMWV,075,R,00.0,N,A*11
$IIVWR,075,R,00.0,N,,,,*63
$IIMWV,075,R,00.0,N,A*11
$IIVWR,075,R,00.0,N,,,,*63
$IIMWV,075,R,00.0,N,A*11
$IIVWR,075,R,00.0,N,,,,*63
$IIMWV,075,R,00.0,N,A*11
$IIVWR,075,R,00.0,N,,,,*63
$IIMWV,075,R,00.0,N,A*11
$IIVWR,075,R,00.0,N,,,,*63
$IIMWV,075,R,00.0,N,A*11
$IIVWR,075,R,00.0,N,,,,*63
$IIMWV,075,R,00.0,N,A*11
$IIVWR,075,R,00.0,N,,,,*63
$IIMWV,075,R,00.0,N,A*11
$IIVWR,075,R,00.0,N,,,,*63
$IIMWV,075,R,00.0,N,A*11
$IIVWR,075,R,00.0,N,,,,*63
$IIMWV,075,R,00.0,N,A*11
$IIVWR,075,R,00.0,N,,,,*63
$IIMWV,075,R,00.0,N,A*11
$IIVWR,075,R,00.0,N,,,,*63
$IIMWV,075,R,00.0,N,A*11
$IIVWR,075,R,00.0,N,,,,*63
$IIMWV,075,R,00.0,N,A*11
$IIVWR,075,R,00.0,N,,,,*63
$IIMWV,075,R,00.0,N,A*11
$IIVWR,075,R,00.0,N,,,,*63
$IIMWV,075,R,00.0,N,A*11
$IIVWR,076,R,00.0,N,,,,*60
$IIMWV,076,R,00.0,N,A*12
$IIVWR,075,R,00.0,N,,,,*63
$PRAYA,6,1,,,,15,,0,0,1,,,*45
$IIMWV,075,R,00.0,N,A*11
$IIVWR,075,R,00.0,N,,,,*63
$IIMWV,075,R,00.0,N,A*11
$IIVWR,076,R,00.0,N,,,,*60
$IIMWV,076,R,00.0,N,A*12
$IIVWR,076,R,00.0,N,,,,*60
$IIMWV,076,R,00.0,N,A*12
$IIVWR,075,R,00.0,N,,,,*63
$IIMWV,075,R,00.0,N,A*11
$IIVWR,075,R,00.0,N,,,,*63
$IIMWV,075,R,00.0,N,A*11
$PRAYA,6,1,,,,15,,0,0,1,,,*45
$IIVWR,075,R,00.0,N,,,,*63
$IIMWV,075,R,00.0,N,A*11
$IIVWR,075,R,00.0,N,,,,*63
$IIMWV,075,R,00.0,N,A*11
$IIVWR,075,R,00.0,N,,,,*63
$IIMWV,075,R,00.0,N,A*11
$IIVWR,076,R,00.0,N,,,,*60
$IIMWV,076,R,00.0,N,A*12
$IIVWR,076,R,00.0,N,,,,*60
$IIMWV,076,R,00.0,N,A*12
$PRAYA,6,1,,,,15,,0,0,1,,,*45
$IIVWR,075,R,00.0,N,,,,*63
$IIMWV,075,R,00.0,N,A*11
$IIVWR,075,R,00.0,N,,,,*63
$IIMWV,075,R,00.0,N,A*11
$IIVWR,075,R,00.0,N,,,,*63
$IIMWV,075,R,00.0,N,A*11
$IIVWR,076,R,00.0,N,,,,*60
$IIMWV,076,R,00.0,N,A*12
$IIVWR,076,R,00.0,N,,,,*60
$IIMWV,076,R,00.0,N,A*12
$PRAYA,6,1,,,,15,,0,0,1,,,*45
$IIVWR,075,R,00.0,N,,,,*63
$IIMWV,075,R,00.0,N,A*11
$IIVWR,075,R,00.0,N,,,,*63
$IIMWV,075,R,00.0,N,A*11
$IIVWR,075,R,00.0,N,,,,*63
$IIMWV,075,R,00.0,N,A*11
$IIVWR,076,R,00.0,N,,,,*60
$IIMWV,076,R,00.0,N,A*12
$IIVWR,076,R,00.0,N,,,,*60
$IIMWV,076,R,00.0,N,A*12
$PRAYA,6,1,,,,15,,0,0,1,,,*45
$IIVWR,076,R,00.0,N,,,,*60
$IIMWV,076,R,00.0,N,A*12
$IIVWR,076,R,00.0,N,,,,*60
$IIMWV,076,R,00.0,N,A*12
$IIVWR,075,R,00.0,N,,,,*63
$IIMWV,075,R,00.0,N,A*11
$IIVWR,075,R,00.0,N,,,,*63
$IIMWV,075,R,00.0,N,A*11
$IIVWR,076,R,00.0,N,,,,*60
$IIMWV,076,R,00.0,N,A*12
$PRAYA,6,1,,,,15,,0,0,1,,,*45
$IIVWR,076,R,00.0,N,,,,*60
$IIMWV,076,R,00.0,N,A*12
$IIVWR,076,R,00.0,N,,,,*60
$IIMWV,076,R,00.0,N,A*12
$IIVWR,076,R,00.0,N,,,,*60
$IIMWV,076,R,00.0,N,A*12
$IIVWR,075,R,00.0,N,,,,*63
$IIMWV,075,R,00.0,N,A*11
$IIVWR,075,R,00.0,N,,,,*63
$IIMWV,075,R,00.0,N,A*11
$PRAYA,6,1,,,,15,,0,0,1,,,*45
$IIVWR,075,R,00.0,N,,,,*63
$IIMWV,075,R,00.0,N,A*11
$IIVWR,076,R,00.0,N,,,,*60
$IIMWV,076,R,00.0,N,A*12
$IIVWR,076,R,00.0,N,,,,*60
$IIMWV,076,R,00.0,N,A*12
$IIVWR,076,R,00.0,N,,,,*60
$IIMWV,076,R,00.0,N,A*12
$IIVWR,076,R,00.0,N,,,,*60
$IIMWV,076,R,00.0,N,A*12
$PRAYA,6,1,,,,15,,0,0,1,,,*45
$IIVWR,076,R,00.0,N,,,,*60
$IIMWV,076,R,00.0,N,A*12
$IIVWR,075,R,00.0,N,,,,*63
$IIMWV,075,R,00.0,N,A*11
$IIVWR,075,R,00.0,N,,,,*63
$IIMWV,075,R,00.0,N,A*11
$IIVWR,076,R,00.0,N,,,,*60
$IIMWV,076,R,00.0,N,A*12
$IIVWR,076,R,00.0,N,,,,*60
$IIMWV,076,R,00.0,N,A*12
$PRAYA,6,1,,,,15,,0,0,1,,,*45
$IIVWR,076,R,00.0,N,,,,*60
$IIMWV,076,R,00.0,N,A*12
$IIVWR,076,R,00.0,N,,,,*60
$IIMWV,076,R,00.0,N,A*12
$IIVWR,076,R,00.0,N,,,,*60
$IIMWV,076,R,00.0,N,A*12
$IIVWR,076,R,00.0,N,,,,*60
$IIMWV,076,R,00.0,N,A*12
$IIVWR,075,R,00.0,N,,,,*63
$IIMWV,075,R,00.0,N,A*11
$PRAYA,6,1,,,,15,,0,0,1,,,*45
$IIVWR,075,R,00.0,N,,,,*63
$IIMWV,075,R,00.0,N,A*11
$IIVWR,076,R,00.0,N,,,,*60
$IIMWV,076,R,00.0,N,A*12
$IIVWR,076,R,00.0,N,,,,*60
$IIMWV,076,R,00.0,N,A*12
$IIVWR,076,R,00.0,N,,,,*60
$IIMWV,076,R,00.0,N,A*12
$IIVWR,076,R,00.0,N,,,,*60
$IIMWV,076,R,00.0,N,A*12
$PRAYA,6,1,,,,15,,0,0,1,,,*45
$IIVWR,076,R,00.0,N,,,,*60
$IIMWV,076,R,00.0,N,A*12
$IIVWR,076,R,00.0,N,,,,*60
$IIMWV,076,R,00.0,N,A*12
$IIVWR,076,R,00.0,N,,,,*60
$IIMWV,076,R,00.0,N,A*12
$IIVWR,076,R,00.0,N,,,,*60
$IIMWV,076,R,00.0,N,A*12
$IIVWR,076,R,00.0,N,,,,*60
$IIMWV,076,R,00.0,N,A*12
$PRAYA,6,1,,,,15,,0,0,1,,,*45
$IIVWR,076,R,00.0,N,,,,*60
$IIMWV,076,R,00.0,N,A*12
$IIVWR,076,R,00.0,N,,,,*60
$IIMWV,076,R,00.0,N,A*12
$IIVWR,076,R,00.0,N,,,,*60
$IIMWV,076,R,00.0,N,A*12
$IIVWR,076,R,00.0,N,,,,*60
$IIMWV,076,R,00.0,N,A*12
$IIVWR,076,R,00.0,N,,,,*60
$IIMWV,076,R,00.0,N,A*12
$PRAYA,6,1,,,,15,,0,0,1,,,*45
$IIVWR,076,R,00.0,N,,,,*60
$IIMWV,076,R,00.0,N,A*12
$IIVWR,076,R,00.0,N,,,,*60
$IIMWV,076,R,00.0,N,A*12
$IIVWR,076,R,00.0,N,,,,*60
$IIMWV,076,R,00.0,N,A*12
$IIVWR,076,R,00.0,N,,,,*60
$IIMWV,076,R,00.0,N,A*12
$IIVWR,076,R,00.0,N,,,,*60
$IIMWV,076,R,00.0,N,A*12
$PRAYA,6,1,,,,15,,0,0,1,,,*45
$IIVWR,076,R,00.0,N,,,,*60
$IIMWV,076,R,00.0,N,A*12
$IIVWR,076,R,00.0,N,,,,*60
$IIMWV,076,R,00.0,N,A*12
$IIVWR,076,R,00.0,N,,,,*60
$IIMWV,076,R,00.0,N,A*12
$IIVWR,076,R,00.0,N,,,,*60
$IIMWV,076,R,00.0,N,A*12
$IIVWR,076,R,00.0,N,,,,*60
$IIMWV,076,R,00.0,N,A*12
$PRAYA,6,1,,,,15,,0,0,1,,,*45
$IIVWR,076,R,00.0,N,,,,*60
$IIMWV,076,R,00.0,N,A*12
$IIVWR,076,R,00.0,N,,,,*60
$IIMWV,076,R,00.0,N,A*12
$IIVWR,076,R,00.0,N,,,,*60
$IIMWV,076,R,00.0,N,A*12
$IIVWR,076,R,00.0,N,,,,*60
$IIMWV,076,R,00.0,N,A*12
$IIVWR,076,R,00.0,N,,,,*60
$IIMWV,076,R,00.0,N,A*12
$PRAYA,6,1,,,,15,,0,0,1,,,*45
$IIVWR,076,R,00.0,N,,,,*60
$IIMWV,076,R,00.0,N,A*12
$IIVWR,076,R,00.0,N,,,,*60
$IIMWV,076,R,00.0,N,A*12
$IIVWR,076,R,00.0,N,,,,*60
$IIMWV,076,R,00.0,N,A*12
$IIVWR,076,R,00.0,N,,,,*60
$IIMWV,076,R,00.0,N,A*12
$IIVWR,076,R,00.0,N,,,,*60
$IIMWV,076,R,00.0,N,A*12
$PRAYA,6,1,,,,15,,0,0,1,,,*45
$IIVWR,076,R,00.0,N,,,,*60
$IIMWV,076,R,00.0,N,A*12
$IIVWR,076,R,00.0,N,,,,*60
$IIMWV,076,R,00.0,N,A*12
$IIVWR,076,R,00.0,N,,,,*60
$IIMWV,076,R,00.0,N,A*12
$IIVWR,076,R,00.0,N,,,,*60
$IIMWV,076,R,00.0,N,A*12
$IIVWR,076,R,00.0,N,,,,*60
$IIMWV,076,R,00.0,N,A*12
$PRAYA,6,1,,,,15,,0,0,1,,,*45
$IIVWR,076,R,00.0,N,,,,*60
$IIMWV,076,R,00.0,N,A*12
$IIVWR,076,R,00.0,N,,,,*60
$IIMWV,076,R,00.0,N,A*12
$IIVWR,076,R,00.0,N,,,,*60
$IIMWV,076,R,00.0,N,A*12
$IIVWR,076,R,00.0,N,,,,*60
$IIMWV,076,R,00.0,N,A*12
$IIVWR,076,R,00.0,N,,,,*60
$IIMWV,076,R,00.0,N,A*12
$IIVWR,076,R,00.0,N,,,,*60
$IIMWV,076,R,00.0,N,A*12
$PRAYA,6,1,,,,15,,0,0,1,,,*45
$IIVWR,076,R,00.0,N,,,,*60
$IIMWV,076,R,00.0,N,A*12
$IIVWR,076,R,00.0,N,,,,*60
$IIMWV,076,R,00.0,N,A*12
$IIVWR,076,R,00.0,N,,,,*60
$IIMWV,076,R,00.0,N,A*12
$IIVWR,076,R,00.0,N,,,,*60
$IIMWV,076,R,00.0,N,A*12
$PRAYA,6,1,,,,15,,0,0,1,,,*45
$IIVWR,076,R,00.0,N,,,,*60
$IIMWV,076,R,00.0,N,A*12
$IIVWR,076,R,00.0,N,,,,*60
$IIMWV,076,R,00.0,N,A*12
$IIVWR,076,R,00.0,N,,,,*60
$IIMWV,076,R,00.0,N,A*12
$IIVWR,076,R,00.0,N,,,,*60
$IIMWV,076,R,00.0,N,A*12
$IIVWR,076,R,00.0,N,,,,*60
$IIMWV,076,R,00.0,N,A*12
$IIVWR,076,R,00.0,Nü$IIVWR,076,R,00.0,N,,,,*60
$IIMWV,076,R,00.0,N,A*12
$IIMWV,076,T,00.0,N,A*14
$PRAYA,6,1,,,,15,,0,0,1,,,*45
$ECGLL,5032.698,N,00359.644,W,175742,A,A*4C
$ECGLL,5032.698,N,00359.644,W,175743,A,A*4D
$IIVWR,076,R,00.0,N,,,,*60
$ECRMC,175743,A,5032.698,N,00359.644,W,000.0,000.0,090914,002.3,W,A*07
$IIMWV,076,R,00.0,N,A*12
$ECVTG,000.0,T,002.3,M,000.0,N,000.0,K,A*33
$IIMWV,076,T,00.0,N,A*14
$ECGLL,5032.698,N,00359.644,W,175744,A,A*4A
$IIVWR,076,R,00.0,N,,,,*60
$ECRMC,175744,A,5032.698,N,00359.644,W,000.0,000.0,090914,002.3,W,A*00
$IIMWV,076,R,00.0,N,A*12
$ECVTG,000.0,T,002.3,M,000.0,N,000.0,K,A*33
$IIMWV,076,T,00.0,N,A*14
$ECGLL,5032.698,N,00359.644,W,175745,A,A*4B
$IIVWR,076,R,00.0,N,,,,*60
$ECRMC,175745,A,5032.698,N,00359.644,W,000.0,000.0,090914,002.3,W,A*01
$IIMWV,076,R,00.0,N,A*12
$ECVTG,000.0,T,002.3,M,000.0,N,000.0,K,A*33
$IIMWV,076,T,00.0,N,A*14
$ECGLL,5032.698,N,00359.644,W,175746,A,A*48
$IIVWR,076,R,00.0,N,,,,*60
$ECRMC,175746,A,5032.698,N,00359.644,W,000.0,000.0,090914,002.3,W,A*02
$IIMWV,076,R,00.0,N,A*12
$ECVTG,000.0,T,002.3,M,000.0,N,000.0,K,A*33
$IIMWV,076,T,00.0,N,A*14
$IIVWR,076,R,00.0,N,,,,*60
$IIMWV,076,R,00.0,N,A*12
$IIMWV,076,T,00.0,N,A*14
$PRAYA,6,1,,,,15,,0,0,1,,,*45
$ECGLL,5032.698,N,00359.644,W,175747,A,A*49
$ECRMC,175747,A,5032.698,N,00359.644,W,000.0,000.0,090914,002.3,W,A*03
$ECVTG,000.0,T,002.3,M,000.0,N,000.0,K,A*33
$IIVWR,076,R,00.0,N,,,,*60
$ECGLL,5032.698,N,00359.644,W,175748,A,A*46
$ECRMC,175748,A,5032.698,N,00359.644,W,000.0,000.0,090914,002.3,W,A*0C
$IIMWV,076,R,00.0,N,A*12
$IIMWV,076,T,00.0,N,A*14
$ECVTG,000.0,T,002.3,M,000.0,N,000.0,K,A*33
$ECGLL,5032.698,N,00359.644,W,175749,A,A*47
$IIVWR,076,R,00.0,N,,,,*60
$ECRMC,175749,A,5032.698,N,00359.644,W,000.0,000.0,090914,002.3,W,A*0D
$IIMWV,076,R,00.0,N,A*12
$IIMWV,076,T,00.0,N,A*14
$ECVTG,000.0,T,002.3,M,000.0,N,000.0,K,A*33
$IIVWR,076,R,00.0,N,,,,*60
$IIMWV,076,R,00.0,N,A*12
$IIMWV,076,T,00.0,N,A*14
$IIVWR,076,R,00.0,N,,,,*60
$ECGLL,5032.698,N,00359.644,W,175751,A,A*4E
$ECRMC,175751,A,5032.698,N,00359.644,W,000.0,000.0,090914,002.3,W,A*04
$IIMWV,076,R,00.0,N,A*12
$IIMWV,076,T,00.0,N,A*14
$ECVTG,000.0,T,002.3,M,000.0,N,000.0,K,A*33
$IIVWR,076,R,00.0,N,,,,*60
$IIMWV,076,R,00.0,N,A*12
$IIMWV,076,T,00.0,N,A*14
$PRAYA,6,1,,,,15,,0,0,1,,,*45
$ECGLL,5032.698,N,00359.644,W,175752,A,A*4D
$ECVTG,000.0,T,002.3,M,000.0,N,000.0,K,A*33
$IIVWR,076,R,00.0,N,,,,*60
$ECGLL,5032.698,N,00359.644,W,175753,A,A*4C
$IIMWV,076,R,00.0,N,A*12
$ECRMC,175753,A,5032.698,N,00359.644,W,000.0,000.0,090914,002.3,W,A*06
$IIMWV,076,T,00.0,N,A*14
$ECVTG,000.0,T,002.3,M,000.0,N,000.0,K,A*33
$ECGLL,5032.698,N,00359.644,W,175754,A,A*4B
$IIVWR,076,R,00.0,N,,,,*60
$ECRMC,175754,A,5032.698,N,00359.644,W,000.0,000.0,090914,002.3,W,A*01
$IIMWV,076,R,00.0,N,A*12
$IIMWV,076,T,00.0,N,A*14
$IIVWR,076,R,00.0,N,,,,*60
$ECVTG,000.0,T,002.3,M,000.0,N,000.0,K,A*33
$IIMWV,076,R,00.0,N,A*12
$IIMWV,076,T,00.0,N,A*14
$IIVWR,067,R,00.0,N,,,,*60
$ECGLL,5032.698,N,00359.644,W,175756,A,A*49
$ECRMC,175756,A,5032.698,N,00359.644,W,000.0,000.0,090914,002.3,W,A*03
$IIMWV,067,R,00.0,N,A*12
$IIMWV,076,T,00.0,N,A*14
$ECVTG,000.0,T,002.3,M,000.0,N,000.0,K,A*33
$IIVWR,035,R,00.0,N,,,,*67
$IIMWV,035,R,00.0,N,A*15
$IIMWV,067,T,00.0,N,A*14
$PRAYA,6,1,,,,15,,0,0,1,,,*45
$ECGLL,5032.698,N,00359.644,W,175757,A,A*48
$ECRMC,175757,A,5032.698,N,00359.644,W,000.0,000.0,090914,002.3,W,A*02
$ECVTG,000.0,T,002.3,M,000.0,N,000.0,K,A*33
$IIVWR,078,L,00.0,N,,,,*70
$ECGLL,5032.698,N,00359.644,W,175758,A,A*47
$IIMWV,282,R,00.0,N,A*1B
$IIMWV,035,T,00.0,N,A*13
$ECRMC,175758,A,5032.698,N,00359.644,W,000.0,000.0,090914,002.3,W,A*0D
$ECVTG,000.0,T,002.3,M,000.0,N,000.0,K,A*33
$IIVWR,117,R,00.9,N,,,,*6F
$ECRMC,175759,A,5032.698,N,00359.644,W,000.0,000.0,090914,002.3,W,A*0C
$IIMWV,117,R,00.9,N,A*1D
$IIMWV,282,T,00.0,N,A*1D
$ECVTG,000.0,T,002.3,M,000.0,N,000.0,K,A*33
$IIVWR,146,R,00.3,N,,,,*61
$ECGLL,5032.698,N,00359.644,W,175800,A,A*45
$IIMWV,146,R,00.3,N,A*13
$ECVTG,000.0,T,002.3,M,000.0,N,000.0,K,A*33
$IIMWV,117,T,00.9,N,A*1B
$ECRMC,175801,A,5032.698,N,00359.644,W,000.0,000.0,090914,002.3,W,A*0E
$IIVWR,097,L,01.2,N,,,,*72
$IIMWV,263,R,01.2,N,A*17
$IIMWV,146,T,00.3,N,A*15
$IIVWR,141,L,01.3,N,,,,*79
$IIMWV,219,R,01.3,N,A*1B
$IIMWV,263,T,01.2,N,A*11
$PRAYA,6,1,,,,15,,0,0,1,,,*45
$ECGLL,5032.698,N,00359.644,W,175803,A,A*46
$ECRMC,175803,A,5032.698,N,00359.644,W,000.0,000.0,090914,002.3,W,A*0C
$ECVTG,000.0,T,002.3,M,000.0,N,000.0,K,A*33
$IIVWR,096,L,00.9,N,,,,*79
$ECGLL,5032.698,N,00359.644,W,175804,A,A*41
$IIMWV,264,R,00.9,N,A*1A
$IIMWV,219,T,01.3,N,A*1D
$IIVWR,097,L,01.0,N,,,,*70
$ECGLL,5032.698,N,00359.644,W,175805,A,A*40
$IIMWV,263,R,01.0,N,A*15
$IIMWV,264,T,00.9,N,A*1C
$ECRMC,175805,A,5032.698,N,00359.644,W,000.0,000.0,090914,002.3,W,A*0A
$ECVTG,000.0,T,002.3,M,000.0,N,000.0,K,A*33
$ECGLL,5032.698,N,00359.644,W,175806,A,A*43
$IIVWR,125,L,01.7,N,,,,*7F
$IIMWV,235,R,01.7,N,A*11
$IIMWV,263,T,01.0,N,A*13
$IIVWR,162,L,01.3,N,,,,*78
$IIMWV,198,R,01.3,N,A*11
$ECGLL,5032.698,N,00359.644,W,175807,A,A*42
$IIMWV,235,T,01.7,N,A*17
$ECRMC,175807,A,5032.698,N,00359.644,W,000.0,000.0,090914,002.3,W,A*08
$ECVTG,000.0,T,002.3,M,000.0,N,000.0,K,A*33
$IIVWR,164,L,01.1,N,,,,*7C
$IIMWV,196,R,01.1,N,A*1D
$IIMWV,198,T,01.3,N,A*17
$PRAYA,6,1,,,,15,,0,0,1,,,*45
$ECGLL,5032.698,N,00359.644,W,175808,A,A*4D
$ECRMC,175808,A,5032.698,N,00359.644,W,000.0,000.0,090914,002.3,W,A*07
$IIVWR,112,L,01.0,N,,,,*7C
$ECVTG,000.0,T,002.3,M,000.0,N,000.0,K,A*33
$IIMWV,248,R,01.0,N,A*1C
$IIMWV,196,T,01.1,N,A*1B
$ECGLL,5032.698,N,00359.644,W,175809,A,A*4C
$ECRMC,175809,A,5032.698,N,00359.644,W,000.0,000.0,090914,002.3,W,A*06
$ECVTG,000.0,T,002.3,M,000.0,N,000.0,K,A*33
$IIVWR,088,L,00.9,N,,,,*76
$IIMWV,272,R,00.9,N,A*1D
$IIMWV,248,T,01.0,N,A*1A
$ECGLL,5032.698,N,00359.644,W,175810,A,A*44
$ECRMC,175810,A,5032.698,N,00359.644,W,000.0,000.0,090914,002.3,W,A*0E
$ECVTG,000.0,T,002.3,M,000.0,N,000.0,K,A*33
$IIVWR,111,L,00.5,N,,,,*7B
$IIMWV,249,R,00.5,N,A*19
$IIMWV,272,T,00.9,N,A*1B
$IIVWR,138,L,00.7,N,,,,*72
$IIMWV,222,R,00.7,N,A*16
$IIMWV,249,T,00.5,N,A*1F
$ECGLL,5032.698,N,00359.644,W,175812,A,A*46
$ECRMC,175812,A,5032.698,N,00359.644,W,000.0,000.0,090914,002.3,W,A*0C
$ECVTG,000.0,T,002.3,M,000.0,N,000.0,K,A*33
$IIVWR,154,L,00.8,N,,,,*77
$IIMWV,206,R,00.8,N,A*1F
$IIMWV,222,T,00.7,N,A*10
$PRAYA,6,1,,,,15,,0,0,1,,,*45
$ECRMC,175813,A,5032.698,N,00359.644,W,000.0,000.0,090914,002.3,W,A*0D
$ECVTG,000.0,T,002.3,M,000.0,N,000.0,K,A*33
$IIVWR,158,L,00.4,N,,,,*77
$IIMWV,202,R,00.4,N,A*17
$IIMWV,206,T,00.8,N,A*19
$ECGLL,5032.698,N,00359.644,W,175814,A,A*40
$ECRMC,175814,A,5032.698,N,00359.644,W,000.0,000.0,090914,002.3,W,A*0A
$ECVTG,000.0,T,002.3,M,000.0,N,000.0,K,A*33
$IIVWR,159,L,00.9,N,,,,*7B
$IIMWV,201,R,00.9,N,A*19
$IIMWV,202,T,00.4,N,A*11
$ECGLL,5032.698,N,00359.644,W,175815,A,A*41
$ECRMC,175815,A,5032.698,N,00359.644,W,000.0,000.0,090914,002.3,W,A*0B
$ECVTG,000.0,T,002.3,M,000.0,N,000.0,K,A*33
$IIVWR,159,L,01.5,N,,,,*76
$IIMWV,201,R,01.5,N,A*14
$IIMWV,201,T,00.9,N,A*1F
$ECGLL,5032.698,N,00359.644,W,175816,A,A*42
$ECRMC,175816,A,5032.698,N,00359.644,W,000.0,000.0,090914,002.3,W,A*08
$ECVTG,000.0,T,002.3,M,000.0,N,000.0,K,A*33
$IIVWR,153,L,00.8,N,,,,*70
$IIMWV,207,R,00.8,N,A*1E
$IIMWV,201,T,01.5,N,A*12
$ECGLL,5032.697,N,00359.643,W,175817,A,A*4B
$ECVTG,000.0,T,002.3,M,000.0,N,000.0,K,A*33
$IIVWR,146,L,00.4,N,,,,*78
$IIMWV,214,R,00.4,N,A*10
$IIMWV,207,T,00.8,N,A*18
$PRAYA,6,1,,,,15,,0,0,1,,,*45
$ECGLL,5032.697,N,00359.643,W,175818,A,A*44
$ECRMC,175818,A,5032.697,N,00359.643,W,000.0,000.0,090914,002.3,W,A*0E
$IIVWR,145,L,00.7,N,,,,*78
$ECVTG,000.0,T,002.3,M,000.0,N,000.0,K,A*33
$IIMWV,215,R,00.7,N,A*12
$IIMWV,214,T,00.4,N,A*16
$ECGLL,5032.697,N,00359.643,W,175819,A,A*45
$ECRMC,175819,A,5032.697,N,00359.643,W,000.0,000.0,090914,002.3,W,A*0F
$ECVTG,000.0,T,002.3,M,000.0,N,000.0,K,A*33
$IIVWR,155,L,00.8,N,,,,*76
$IIMWV,205,R,00.8,N,A*1C
$IIMWV,215,T,00.7,N,A*14
$ECGLL,5032.697,N,00359.643,W,175820,A,A*4F
$ECRMC,175820,A,5032.697,N,00359.643,W,000.0,000.0,090914,002.3,W,A*05
$ECVTG,000.0,T,002.3,M,000.0,N,000.0,K,A*33
$IIVWR,175,L,01.1,N,,,,*7C
$IIMWV,185,R,01.1,N,A*1F
$IIMWV,205,T,00.8,N,A*1A
$IIVWR,165,R,01.7,N,,,,*65
$IIMWV,165,R,01.7,N,A*17
$IIMWV,185,T,01.1,N,A*19
$ECGLL,5032.697,N,00359.643,W,175822,A,A*4D
$ECRMC,175822,A,5032.697,N,00359.643,W,000.0,000.0,090914,002.3,W,A*07
$ECVTG,000.0,T,002.3,M,000.0,N,000.0,K,A*33
$IIVWR,163,R,01.5,N,,,,*61
$IIMWV,163,R,01.5,N,A*13
$IIMWV,165,T,01.7,N,A*11
$PRAYA,6,1,,,,15,,0,0,1,,,*45
$ECGLL,5032.697,N,00359.643,W,175823,A,A*4C
$IIVWR,169,R,01.4,N,,,,*6A
$ECRMC,175823,A,5032.697,N,00359.643,W,000.0,000.0,090914,002.3,W,A*06
$IIMWV,169,R,01.4,N,A*18
$IIMWV,163,T,01.5,N,A*15
$ECVTG,000.0,T,002.3,M,000.0,N,000.0,K,A*33
$ECGLL,5032.697,N,00359.643,W,175824,A,A*4B
$ECRMC,175824,A,5032.697,N,00359.643,W,000.0,000.0,090914,002.3,W,A*01
$ECVTG,000.0,T,002.3,M,000.0,N,000.0,K,A*33
$IIVWR,176,L,00.8,N,,,,*77
$IIMWV,184,R,00.8,N,A*16
$IIMWV,169,T,01.4,N,A*1E
$ECGLL,5032.697,N,00359.643,W,175825,A,A*4A
$ECRMC,175825,A,5032.697,N,00359.643,W,000.0,000.0,090914,002.3,W,A*00
$ECVTG,000.0,T,002.3,M,000.0,N,000.0,K,A*33
$IIVWR,166,L,00.9,N,,,,*77
$IIMWV,194,R,00.9,N,A*16
$IIMWV,184,T,00.8,N,A*10
$IIVWR,155,L,01.6,N,,,,*79
$IIMWV,205,R,01.6,N,A*13
$IIMWV,194,T,00.9,N,A*10
$ECGLL,5032.697,N,00359.643,W,175827,A,A*48
$ECRMC,175827,A,5032.697,N,00359.643,W,000.0,000.0,090914,002.3,W,A*02
$ECVTG,000.0,T,002.3,M,000.0,N,000.0,K,A*33
$IIVWR,172,L,00.8,N,,,,*73
$IIMWV,188,R,00.8,N,A*1A
$IIMWV,205,T,01.6,N,A*15
$PRAYA,6,1,,,,15,,0,0,1,,,*45
$IIVWR,167,R,01.1,N,,,,*61
$ECGLL,5032.697,N,00359.643,W,175828,A,A*47
$ECRMC,175828,A,5032.697,N,00359.643,W,000.0,000.0,090914,002.3,W,A*0D
$IIMWV,167,R,01.1,N,A*13
$IIMWV,188,T,00.8,N,A*1C
$ECVTG,000.0,T,002.3,M,000.0,N,000.0,K,A*33
$ECGLL,5032.697,N,00359.643,W,175829,A,A*46
$ECRMC,175829,A,5032.697,N,00359.643,W,000.0,000.0,090914,002.3,W,A*0C
$ECVTG,000.0,T,002.3,M,000.0,N,000.0,K,A*33
$IIVWR,169,R,01.7,N,,,,*69
$IIMWV,169,R,01.7,N,A*1B
$IIMWV,167,T,01.1,N,A*15
$ECGLL,5032.697,N,00359.643,W,175830,A,A*4E
$ECRMC,175830,A,5032.697,N,00359.643,W,000.0,000.0,090914,002.3,W,A*04
$ECVTG,000.0,T,002.3,M,000.0,N,000.0,K,A*33
$IIVWR,178,R,01.6,N,,,,*68
$IIMWV,178,R,01.6,N,A*1A
$IIMWV,169,T,01.7,N,A*1D
$ECGLL,5032.697,N,00359.643,W,175831,A,A*4F
$ECRMC,175831,A,5032.697,N,00359.643,W,000.0,000.0,090914,002.3,W,A*05
$ECVTG,000.0,T,002.3,M,000.0,N,000.0,K,A*33
$PRAYA,6,1,,,,15,,0,0,1,,,*45
$ECGLL,5032.697,N,00359.643,W,175833,A,A*4D
$ECRMC,175833,A,5032.697,N,00359.643,W,000.0,000.0,090914,002.3,W,A*07
$ECVTG,000.0,T,002.3,M,000.0,N,000.0,K,A*33
$ECRMC,175834,A,5032.697,N,00359.643,W,000.0,000.0,09091~